{
"type": "FeatureCollection",
"name": "trenerzy_wspolrzedne",
"crs": { "type": "name", "properties": { "name": "urn:ogc:def:crs:OGC:1.3:CRS84" } },
"features": [
{ "type": "Feature", "properties": { "Id": 1, "miasto": "Warszawa", "kod_pocztowy": "02-373", "search_address": "02-373 Warszawa, Polska", "lat": 52.2114341, "lon": 20.9709683 }, "geometry": { "type": "Point", "coordinates": [ 20.9709683, 52.2114341 ] } },
{ "type": "Feature", "properties": { "Id": 2, "miasto": "Łódź", "kod_pocztowy": "92-221", "search_address": "92-221 Łódź, Polska", "lat": 51.7687173, "lon": 19.5108705 }, "geometry": { "type": "Point", "coordinates": [ 19.5108705, 51.7687173 ] } },
{ "type": "Feature", "properties": { "Id": 3, "miasto": "Łódź", "kod_pocztowy": "94-109", "search_address": "94-109 Łódź, Polska", "lat": 51.7341046, "lon": 19.4071493 }, "geometry": { "type": "Point", "coordinates": [ 19.4071493, 51.7341046 ] } },
{ "type": "Feature", "properties": { "Id": 4, "miasto": "Łódź", "kod_pocztowy": "92-221", "search_address": "92-221 Łódź, Polska", "lat": 51.7687173, "lon": 19.5108705 }, "geometry": { "type": "Point", "coordinates": [ 19.5108705, 51.7687173 ] } },
{ "type": "Feature", "properties": { "Id": 5, "miasto": "Konotopa", "kod_pocztowy": "05-850", "search_address": "05-850 Konotopa, Polska", "lat": 52.1988, "lon": 20.8208 }, "geometry": { "type": "Point", "coordinates": [ 20.8208, 52.1988 ] } },
{ "type": "Feature", "properties": { "Id": 6, "miasto": "Konotopa", "kod_pocztowy": "05-850", "search_address": "05-850 Konotopa, Polska", "lat": 52.1988, "lon": 20.8208 }, "geometry": { "type": "Point", "coordinates": [ 20.8208, 52.1988 ] } },
{ "type": "Feature", "properties": { "Id": 7, "miasto": "Poznań", "kod_pocztowy": "61-676", "search_address": "61-676 Poznań, Polska", "lat": 52.4398435, "lon": 16.9401757 }, "geometry": { "type": "Point", "coordinates": [ 16.9401757, 52.4398435 ] } },
{ "type": "Feature", "properties": { "Id": 8, "miasto": "Wrząca", "kod_pocztowy": "95-083", "search_address": "95-083 Wrząca, Polska", "lat": 51.7461, "lon": 19.2207 }, "geometry": { "type": "Point", "coordinates": [ 19.2207, 51.7461 ] } },
{ "type": "Feature", "properties": { "Id": 9, "miasto": "Konstantynów Łódzki", "kod_pocztowy": "95-050", "search_address": "95-050 Konstantynów Łódzki, Polska", "lat": 51.7506093, "lon": 19.3709928 }, "geometry": { "type": "Point", "coordinates": [ 19.3709928, 51.7506093 ] } },
{ "type": "Feature", "properties": { "Id": 10, "miasto": "Wrocław", "kod_pocztowy": "51-677", "search_address": "51-677 Wrocław, Polska", "lat": 51.1074422, "lon": 17.1020868 }, "geometry": { "type": "Point", "coordinates": [ 17.1020868, 51.1074422 ] } },
{ "type": "Feature", "properties": { "Id": 11, "miasto": "Wrocław", "kod_pocztowy": "51-668", "search_address": "51-668 Wrocław, Polska", "lat": 51.107841756, "lon": 17.038656154000002 }, "geometry": { "type": "Point", "coordinates": [ 17.038656154, 51.107841756 ] } },
{ "type": "Feature", "properties": { "Id": 12, "miasto": "Laryszów", "kod_pocztowy": "42-674", "search_address": "42-674 Laryszów, Polska", "lat": 50.4465, "lon": 18.7808 }, "geometry": { "type": "Point", "coordinates": [ 18.7808, 50.4465 ] } },
{ "type": "Feature", "properties": { "Id": 13, "miasto": "Myszków", "kod_pocztowy": "42-300", "search_address": "42-300 Myszków, Polska", "lat": 50.5623797, "lon": 19.3292881 }, "geometry": { "type": "Point", "coordinates": [ 19.3292881, 50.5623797 ] } },
{ "type": "Feature", "properties": { "Id": 14, "miasto": "Kleszczewo", "kod_pocztowy": "83-034", "search_address": "83-034 Kleszczewo, Polska", "lat": 54.1927, "lon": 18.5152 }, "geometry": { "type": "Point", "coordinates": [ 18.5152, 54.1927 ] } },
{ "type": "Feature", "properties": { "Id": 15, "miasto": "Karpniki", "kod_pocztowy": "58-533", "search_address": "58-533 Karpniki, Polska", "lat": 50.8511, "lon": 15.8635 }, "geometry": { "type": "Point", "coordinates": [ 15.8635, 50.8511 ] } },
{ "type": "Feature", "properties": { "Id": 16, "miasto": "Opole", "kod_pocztowy": "45-083", "search_address": "45-083 Opole, Polska", "lat": 50.6687671, "lon": 17.9178321 }, "geometry": { "type": "Point", "coordinates": [ 17.9178321, 50.6687671 ] } },
{ "type": "Feature", "properties": { "Id": 17, "miasto": "Kraków", "kod_pocztowy": "31-223", "search_address": "31-223 Kraków, Polska", "lat": 50.0936733, "lon": 19.9237387 }, "geometry": { "type": "Point", "coordinates": [ 19.9237387, 50.0936733 ] } },
{ "type": "Feature", "properties": { "Id": 18, "miasto": "Tarnów", "kod_pocztowy": "33-100", "search_address": "33-100 Tarnów, Polska", "lat": 50.0274781, "lon": 20.9725213 }, "geometry": { "type": "Point", "coordinates": [ 20.9725213, 50.0274781 ] } },
{ "type": "Feature", "properties": { "Id": 19, "miasto": "Kościerzyna", "kod_pocztowy": "83-400", "search_address": "83-400 Kościerzyna, Polska", "lat": 54.1329699, "lon": 17.9866071 }, "geometry": { "type": "Point", "coordinates": [ 17.9866071, 54.1329699 ] } },
{ "type": "Feature", "properties": { "Id": 20, "miasto": "Gdynia", "kod_pocztowy": "81-381", "search_address": "81-381 Gdynia, Polska", "lat": 54.5100775, "lon": 18.5395148 }, "geometry": { "type": "Point", "coordinates": [ 18.5395148, 54.5100775 ] } }
]
}
